{
    "total": 11,
    "nextPage": "",
    "done": true,
    "records": [
        {
            "parcelShopId": "S12419",
            "latitude": 51.508393,
            "longitude": -0.126372,
            "description": "COOP - STRAND",
            "phoneNumber": "02078 394570",
            "address": {
                "street": "456-459 Strand",
                "postCode": "WC2R 0RG",
                "city": "Greater London"
            },
            "facilities": [],
            "services": [],
            "distance": 596
        },
        {
            "parcelShopId": "S31506",
            "latitude": 51.515725,
            "longitude": -0.123821,
            "description": "DRURY NEWS WC2B",
            "phoneNumber": "02073 793494",
            "address": {
                "street": "15 Drury Lane,",
                "postCode": "WC2B 5RB",
                "city": "Covent Garden"
            },
            "facilities": [
                {
                    "name": "Parking"
                },
                {
                    "name": "Large storage space"
                },
                {
                    "name": "ATM"
                },
                {
                    "name": "Bill payment terminal"
                },
                {
                    "name": "Cr/Dd facility"
                },
                {
                    "name": "Lottery"
                },
                {
                    "name": "7 Day Opening Hours"
                },
                {
                    "name": "Sells alcohol"
                },
                {
                    "name": "Sells tobacco"
                }
            ],
            "services": [],
            "distance": 762
        }
    ]
}